[{"id": "eANZDJ5b801wlfeZTUGzyA", "alias": "blacks-barbecue-lockhart-lockhart", "name": "Black's Barbecue Lockhart", "image_url": "https://s3-media3.fl.yelpcdn.com/bphoto/V6wlGx2U7veIqHq75lHoLQ/o.jpg", "is_closed": false, "url": "https://www.yelp.com/biz/blacks-barbecue-lockhart-lockhart?adjust_creative=xjhN_lk3nOT5MdOw5Vddqg&utm_campaign=yelp_api_v3&utm_medium=api_v3_business_search&utm_source=xjhN_lk3nOT5MdOw5Vddqg", "review_count": 1673, "categories": [{"alias": "bbq", "title": "Barbeque"}], "rating": 4.0, "coordinates": {"latitude": 29.88609, "longitude": -97.67289}, "transactions": [], "price": "$$", "location": {"address1": "215 N Main St", "address2": "", "address3": "", "city": "Lockhart", "zip_code": "78644", "country": "US", "state": "TX", "display_address": ["215 N Main St", "Lockhart, TX 78644"]}, "phone": "+15123982712", "display_phone": "(512) 398-2712", "distance": 541.4455916059236}, {"id": "Q-aLHWVyO7IdVaxVNWvmxg", "alias": "terry-blacks-bbq-lockhart-lockhart", "name": "Terry Black's BBQ Lockhart", "image_url": "https://s3-media1.fl.yelpcdn.com/bphoto/y14kX2-PVFCOpUEu-YC5Pw/o.jpg", "is_closed": false, "url": "https://www.yelp.com/biz/terry-blacks-bbq-lockhart-lockhart?adjust_creative=xjhN_lk3nOT5MdOw5Vddqg&utm_campaign=yelp_api_v3&utm_medium=api_v3_business_search&utm_source=xjhN_lk3nOT5MdOw5Vddqg", "review_count": 44, "categories": [{"alias": "bbq", "title": "Barbeque"}, {"alias": "sandwiches", "title": "Sandwiches"}], "rating": 4.5, "coordinates": {"latitude": 29.893506186396223, "longitude": -97.6726363}, "transactions": [], "location": {"address1": "900 N Colorado St", "address2": null, "address3": "", "city": "Lockhart", "zip_code": "78644", "country": "US", "state": "TX", "display_address": ["900 N Colorado St", "Lockhart, TX 78644"]}, "phone": "+15126684617", "display_phone": "(512) 668-4617", "distance": 1307.4313042967628}, {"id": "O4SrowLGiyvrF_oTefQfwA", "alias": "kreuz-market-lockhart", "name": "Kreuz Market", "image_url": "https://s3-media2.fl.yelpcdn.com/bphoto/_tcXEu7bMoQZlp5iiqGJcA/o.jpg", "is_closed": false, "url": "https://www.yelp.com/biz/kreuz-market-lockhart?adjust_creative=xjhN_lk3nOT5MdOw5Vddqg&utm_campaign=yelp_api_v3&utm_medium=api_v3_business_search&utm_source=xjhN_lk3nOT5MdOw5Vddqg", "review_count": 952, "categories": [{"alias": "bbq", "title": "Barbeque"}], "rating": 3.5, "coordinates": {"latitude": 29.889954039326714, "longitude": -97.6718163227271}, "transactions": [], "price": "$$", "location": {"address1": "619 N Colorado St", "address2": "", "address3": "", "city": "Lockhart", "zip_code": "78644", "country": "US", "state": "TX", "display_address": ["619 N Colorado St", "Lockhart, TX 78644"]}, "phone": "+15123982361", "display_phone": "(512) 398-2361", "distance": 973.7010313730814}, {"id": "71IcJf-dZ54QdSIqC7Q7eQ", "alias": "smittys-market-lockhart", "name": "Smitty's Market", "image_url": "https://s3-media1.fl.yelpcdn.com/bphoto/5a818JrXvTqjWafWFyN9qQ/o.jpg", "is_closed": false, "url": "https://www.yelp.com/biz/smittys-market-lockhart?adjust_creative=xjhN_lk3nOT5MdOw5Vddqg&utm_campaign=yelp_api_v3&utm_medium=api_v3_business_search&utm_source=xjhN_lk3nOT5MdOw5Vddqg", "review_count": 955, "categories": [{"alias": "bbq", "title": "Barbeque"}], "rating": 3.5, "coordinates": {"latitude": 29.883638381958, "longitude": -97.6708297729492}, "transactions": [], "price": "$$", "location": {"address1": "208 S Commerce St", "address2": "", "address3": "", "city": "Lockhart", "zip_code": "78644", "country": "US", "state": "TX", "display_address": ["208 S Commerce St", "Lockhart, TX 78644"]}, "phone": "+15123989344", "display_phone": "(512) 398-9344", "distance": 573.1121933173096}, {"id": "Bb2YUVvHBDtfGGGHJGKGCA", "alias": "rileys-pit-bbq-lockhart", "name": "Riley's Pit BBQ", "image_url": "https://s3-media4.fl.yelpcdn.com/bphoto/gzMpCrXGqVlZY_3dq5wdGA/o.jpg", "is_closed": false, "url": "https://www.yelp.com/biz/rileys-pit-bbq-lockhart?adjust_creative=xjhN_lk3nOT5MdOw5Vddqg&utm_campaign=yelp_api_v3&utm_medium=api_v3_business_search&utm_source=xjhN_lk3nOT5MdOw5Vddqg", "review_count": 34, "categories": [{"alias": "bbq", "title": "Barbeque"}], "rating": 4.5, "coordinates": {"latitude": 29.869819192624544, "longitude": -97.66842202575293}, "transactions": [], "location": {"address1": "1326 S Colorado", "address2": null, "address3": "", "city": "Lockhart ", "zip_code": "78644", "country": "US", "state": "TX", "display_address": ["1326 S Colorado", "Lockhart , TX 78644"]}, "phone": "+15123985001", "display_phone": "(512) 398-5001", "distance": 1599.5899557836171}, {"id": "76bsekoOH_eGgtMX2t5egg", "alias": "lockhart-chisholm-trail-bbq-lockhart", "name": "Lockhart Chisholm Trail BBQ", "image_url": "https://s3-media1.fl.yelpcdn.com/bphoto/Ko14rXFpu9eMRyG2MUa8ow/o.jpg", "is_closed": false, "url": "https://www.yelp.com/biz/lockhart-chisholm-trail-bbq-lockhart?adjust_creative=xjhN_lk3nOT5MdOw5Vddqg&utm_campaign=yelp_api_v3&utm_medium=api_v3_business_search&utm_source=xjhN_lk3nOT5MdOw5Vddqg", "review_count": 328, "categories": [{"alias": "bbq", "title": "Barbeque"}], "rating": 3.5, "coordinates": {"latitude": 29.87022, "longitude": -97.66912}, "transactions": [], "price": "$$", "location": {"address1": "1323 S Colorado St", "address2": "", "address3": "", "city": "Lockhart", "zip_code": "78644", "country": "US", "state": "TX", "display_address": ["1323 S Colorado St", "Lockhart, TX 78644"]}, "phone": "+15123986027", "display_phone": "(512) 398-6027", "distance": 1520.0944487722188}, {"id": "pFTkNJIylxWYJTnDnA7I5w", "alias": "market-street-cafe-lockhart", "name": "Market Street Cafe", "image_url": "https://s3-media1.fl.yelpcdn.com/bphoto/p7kRC_wZWmwWLzrVDqlaAw/o.jpg", "is_closed": false, "url": "https://www.yelp.com/biz/market-street-cafe-lockhart?adjust_creative=xjhN_lk3nOT5MdOw5Vddqg&utm_campaign=yelp_api_v3&utm_medium=api_v3_business_search&utm_source=xjhN_lk3nOT5MdOw5Vddqg", "review_count": 119, "categories": [{"alias": "cafes", "title": "Cafes"}, {"alias": "tradamerican", "title": "American (Traditional)"}], "rating": 5.0, "coordinates": {"latitude": 29.86492710918828, "longitude": -97.68283484965318}, "transactions": [], "price": "$$", "location": {"address1": "1100 State Park Rd", "address2": null, "address3": "", "city": "Lockhart", "zip_code": "78644", "country": "US", "state": "TX", "display_address": ["1100 State Park Rd", "Lockhart, TX 78644"]}, "phone": "+15126683065", "display_phone": "(512) 668-3065", "distance": 2019.0783565382221}, {"id": "O3qzFUGp_-vom5Fz4vi6Gg", "alias": "the-culinary-room-lockhart", "name": "The Culinary Room", "image_url": "https://s3-media1.fl.yelpcdn.com/bphoto/gOeNq7qi7_pVQG_vWUAAuA/o.jpg", "is_closed": false, "url": "https://www.yelp.com/biz/the-culinary-room-lockhart?adjust_creative=xjhN_lk3nOT5MdOw5Vddqg&utm_campaign=yelp_api_v3&utm_medium=api_v3_business_search&utm_source=xjhN_lk3nOT5MdOw5Vddqg", "review_count": 23, "categories": [{"alias": "cheese", "title": "Cheese Shops"}, {"alias": "giftshops", "title": "Gift Shops"}, {"alias": "bakeries", "title": "Bakeries"}], "rating": 4.5, "coordinates": {"latitude": 29.884922, "longitude": -97.672354}, "transactions": [], "location": {"address1": "101 E San Antonio St", "address2": "Ste 100", "address3": null, "city": "Lockhart", "zip_code": "78644", "country": "US", "state": "TX", "display_address": ["101 E San Antonio St", "Ste 100", "Lockhart, TX 78644"]}, "phone": "+15122891282", "display_phone": "(512) 289-1282", "distance": 512.8487246103967}, {"id": "bw_X_rCMqABkzFlYlWZEFA", "alias": "load-off-fannys-lockhart", "name": "Load Off Fanny's", "image_url": "https://s3-media3.fl.yelpcdn.com/bphoto/JV8eWGBKgyu4Dg5obCEEgg/o.jpg", "is_closed": false, "url": "https://www.yelp.com/biz/load-off-fannys-lockhart?adjust_creative=xjhN_lk3nOT5MdOw5Vddqg&utm_campaign=yelp_api_v3&utm_medium=api_v3_business_search&utm_source=xjhN_lk3nOT5MdOw5Vddqg", "review_count": 56, "categories": [{"alias": "chicken_wings", "title": "Chicken Wings"}, {"alias": "beerbar", "title": "Beer Bar"}, {"alias": "burgers", "title": "Burgers"}], "rating": 4.5, "coordinates": {"latitude": 29.8839406364337, "longitude": -97.6709608733654}, "transactions": [], "price": "$", "location": {"address1": "202 E Market St", "address2": "", "address3": null, "city": "Lockhart", "zip_code": "78644", "country": "US", "state": "TX", "display_address": ["202 E Market St", "Lockhart, TX 78644"]}, "phone": "+15126683131", "display_phone": "(512) 668-3131", "distance": 582.7517469969349}, {"id": "taq63oaBNhrdm7cEvdBfHA", "alias": "dos-gordos-one-brisket-kyle", "name": "Dos Gordos One Brisket", "image_url": "https://s3-media2.fl.yelpcdn.com/bphoto/6XAijkscvYqR1TjgfOr9wA/o.jpg", "is_closed": false, "url": "https://www.yelp.com/biz/dos-gordos-one-brisket-kyle?adjust_creative=xjhN_lk3nOT5MdOw5Vddqg&utm_campaign=yelp_api_v3&utm_medium=api_v3_business_search&utm_source=xjhN_lk3nOT5MdOw5Vddqg", "review_count": 1, "categories": [{"alias": "foodtrucks", "title": "Food Trucks"}, {"alias": "bbq", "title": "Barbeque"}], "rating": 5.0, "coordinates": {"latitude": 30.056727000000002, "longitude": -97.86344045}, "transactions": [], "location": {"address1": null, "address2": null, "address3": null, "city": "Kyle", "zip_code": "78640", "country": "US", "state": "TX", "display_address": ["Kyle, TX 78640"]}, "phone": "+15127811392", "display_phone": "(512) 781-1392", "distance": 26454.092166285423}, {"id": "AMzRzc99gAsi3YLO8DkZ3g", "alias": "henrys-restaurant-lockhart", "name": "Henry's Restaurant", "image_url": "https://s3-media3.fl.yelpcdn.com/bphoto/wik-w5nZ4tgGRPMxwEjtqQ/o.jpg", "is_closed": false, "url": "https://www.yelp.com/biz/henrys-restaurant-lockhart?adjust_creative=xjhN_lk3nOT5MdOw5Vddqg&utm_campaign=yelp_api_v3&utm_medium=api_v3_business_search&utm_source=xjhN_lk3nOT5MdOw5Vddqg", "review_count": 91, "categories": [{"alias": "tradamerican", "title": "American (Traditional)"}], "rating": 4.0, "coordinates": {"latitude": 29.88345, "longitude": -97.67134}, "transactions": [], "price": "$", "location": {"address1": "215 S Commerce St", "address2": null, "address3": null, "city": "Lockhart", "zip_code": "78644", "country": "US", "state": "TX", "display_address": ["215 S Commerce St", "Lockhart, TX 78644"]}, "phone": "+15123984609", "display_phone": "(512) 398-4609", "distance": 532.770241870817}, {"id": "hK4_SWY_cOmhgHvFJy7ipg", "alias": "lil-charlies-lockhart-2", "name": "Lil  Charlie's", "image_url": "https://s3-media3.fl.yelpcdn.com/bphoto/LqNSTxr0OV_AcJqnicRkzg/o.jpg", "is_closed": false, "url": "https://www.yelp.com/biz/lil-charlies-lockhart-2?adjust_creative=xjhN_lk3nOT5MdOw5Vddqg&utm_campaign=yelp_api_v3&utm_medium=api_v3_business_search&utm_source=xjhN_lk3nOT5MdOw5Vddqg", "review_count": 22, "categories": [{"alias": "chicken_wings", "title": "Chicken Wings"}], "rating": 4.0, "coordinates": {"latitude": 29.8827378871784, "longitude": -97.6722588887638}, "transactions": [], "price": "$", "location": {"address1": "300 S Main St", "address2": "", "address3": null, "city": "Lockhart", "zip_code": "78644", "country": "US", "state": "TX", "display_address": ["300 S Main St", "Lockhart, TX 78644"]}, "phone": "+15126683151", "display_phone": "(512) 668-3151", "distance": 430.7829552706719}, {"id": "vpKw26863bDcbL7BsjFodA", "alias": "smokey-mos-bbq-kyle", "name": "Smokey Mo's BBQ", "image_url": "https://s3-media1.fl.yelpcdn.com/bphoto/SKANbsd6cXMMDJ_4bG_SyA/o.jpg", "is_closed": false, "url": "https://www.yelp.com/biz/smokey-mos-bbq-kyle?adjust_creative=xjhN_lk3nOT5MdOw5Vddqg&utm_campaign=yelp_api_v3&utm_medium=api_v3_business_search&utm_source=xjhN_lk3nOT5MdOw5Vddqg", "review_count": 15, "categories": [{"alias": "bbq", "title": "Barbeque"}], "rating": 3.5, "coordinates": {"latitude": 30.023620133849196, "longitude": -97.8724611116567}, "transactions": ["pickup", "delivery"], "location": {"address1": "4500 S Fm 1626", "address2": "Ste 200", "address3": null, "city": "Kyle", "zip_code": "78640", "country": "US", "state": "TX", "display_address": ["4500 S Fm 1626", "Ste 200", "Kyle, TX 78640"]}, "phone": "+15126107493", "display_phone": "(512) 610-7493", "distance": 24549.852545453778}, {"id": "pBpwBd4Vg5oe53WN5W-QrA", "alias": "la-ideal-panderia-and-pasteleria-lockhart", "name": "La Ideal Panderia & Pasteleria", "image_url": "https://s3-media3.fl.yelpcdn.com/bphoto/TYQQvS7NILeH_FBaKDBx2g/o.jpg", "is_closed": false, "url": "https://www.yelp.com/biz/la-ideal-panderia-and-pasteleria-lockhart?adjust_creative=xjhN_lk3nOT5MdOw5Vddqg&utm_campaign=yelp_api_v3&utm_medium=api_v3_business_search&utm_source=xjhN_lk3nOT5MdOw5Vddqg", "review_count": 6, "categories": [{"alias": "bakeries", "title": "Bakeries"}], "rating": 4.0, "coordinates": {"latitude": 29.8844931258117, "longitude": -97.6712782620089}, "transactions": [], "location": {"address1": "110 S Commerce St", "address2": "", "address3": null, "city": "Lockhart", "zip_code": "78644", "country": "US", "state": "TX", "display_address": ["110 S Commerce St", "Lockhart, TX 78644"]}, "phone": "+15126683066", "display_phone": "(512) 668-3066", "distance": 577.1048129227008}, {"id": "BZUo5CzwBEfSdWmdkT9aTw", "alias": "lillys-bar-and-grill-lockhart", "name": "Lilly's Bar and Grill", "image_url": "https://s3-media3.fl.yelpcdn.com/bphoto/t2dtmtEOjyEPEF1htPMfAw/o.jpg", "is_closed": false, "url": "https://www.yelp.com/biz/lillys-bar-and-grill-lockhart?adjust_creative=xjhN_lk3nOT5MdOw5Vddqg&utm_campaign=yelp_api_v3&utm_medium=api_v3_business_search&utm_source=xjhN_lk3nOT5MdOw5Vddqg", "review_count": 20, "categories": [{"alias": "sportsbars", "title": "Sports Bars"}, {"alias": "tradamerican", "title": "American (Traditional)"}], "rating": 4.5, "coordinates": {"latitude": 29.8857316374543, "longitude": -97.6732659177962}, "transactions": [], "price": "$", "location": {"address1": "109 W Walnut St", "address2": "", "address3": "", "city": "Lockhart", "zip_code": "78644", "country": "US", "state": "TX", "display_address": ["109 W Walnut St", "Lockhart, TX 78644"]}, "phone": "+15126200745", "display_phone": "(512) 620-0745", "distance": 506.03288116823677}, {"id": "4QEVHpcg6b7PKEff8AvurA", "alias": "bellas-under-the-oaks-lytton-springs", "name": "Bella's Under the Oaks", "image_url": "https://s3-media3.fl.yelpcdn.com/bphoto/MAVQ9rggGbot4yAkkVT7ew/o.jpg", "is_closed": false, "url": "https://www.yelp.com/biz/bellas-under-the-oaks-lytton-springs?adjust_creative=xjhN_lk3nOT5MdOw5Vddqg&utm_campaign=yelp_api_v3&utm_medium=api_v3_business_search&utm_source=xjhN_lk3nOT5MdOw5Vddqg", "review_count": 2, "categories": [{"alias": "bbq", "title": "Barbeque"}], "rating": 5.0, "coordinates": {"latitude": 29.9679708593884, "longitude": -97.6043485477567}, "transactions": [], "price": "$", "location": {"address1": "8575 Farm 1854", "address2": "", "address3": "", "city": "Lytton Springs", "zip_code": "78616", "country": "US", "state": "TX", "display_address": ["8575 Farm 1854", "Lytton Springs, TX 78616"]}, "phone": "+15129657622", "display_phone": "(512) 965-7622", "distance": 11806.168370225843}, {"id": "7tRLbw2xiAv59E9XabkCdg", "alias": "hawkins-farmhouse-ales-lockhart", "name": "Hawkins Farmhouse Ales", "image_url": "https://s3-media1.fl.yelpcdn.com/bphoto/RFgz29VCSlfFqYa39mz9QQ/o.jpg", "is_closed": false, "url": "https://www.yelp.com/biz/hawkins-farmhouse-ales-lockhart?adjust_creative=xjhN_lk3nOT5MdOw5Vddqg&utm_campaign=yelp_api_v3&utm_medium=api_v3_business_search&utm_source=xjhN_lk3nOT5MdOw5Vddqg", "review_count": 4, "categories": [{"alias": "breweries", "title": "Breweries"}], "rating": 5.0, "coordinates": {"latitude": 29.90713, "longitude": -97.73072}, "transactions": [], "location": {"address1": "80 County Ln", "address2": null, "address3": "", "city": "Lockhart", "zip_code": "78644", "country": "US", "state": "TX", "display_address": ["80 County Ln", "Lockhart, TX 78644"]}, "phone": "+15122139272", "display_phone": "(512) 213-9272", "distance": 5871.612525152716}, {"id": "x_w3S4gzXTufx34aU4z2Tg", "alias": "guadalajara-mexican-restaurant-lockhart", "name": "Guadalajara Mexican Restaurant", "image_url": "https://s3-media4.fl.yelpcdn.com/bphoto/-0rR9-Cbm9OpdOtLp1B0vw/o.jpg", "is_closed": false, "url": "https://www.yelp.com/biz/guadalajara-mexican-restaurant-lockhart?adjust_creative=xjhN_lk3nOT5MdOw5Vddqg&utm_campaign=yelp_api_v3&utm_medium=api_v3_business_search&utm_source=xjhN_lk3nOT5MdOw5Vddqg", "review_count": 84, "categories": [{"alias": "mexican", "title": "Mexican"}, {"alias": "bars", "title": "Bars"}, {"alias": "tex-mex", "title": "Tex-Mex"}], "rating": 4.0, "coordinates": {"latitude": 29.86338, "longitude": -97.66753}, "transactions": [], "price": "$", "location": {"address1": "1710 S Colorado St", "address2": "", "address3": "", "city": "Lockhart", "zip_code": "78644", "country": "US", "state": "TX", "display_address": ["1710 S Colorado St", "Lockhart, TX 78644"]}, "phone": "+15123987707", "display_phone": "(512) 398-7707", "distance": 2280.5517536062807}, {"id": "aAX_x4lIpDKFxOae7FdJog", "alias": "maxwell-bar-b-que-maxwell", "name": "Maxwell Bar-B-Que", "image_url": "https://s3-media3.fl.yelpcdn.com/bphoto/O_tA8eqAC6WGMzpYpddJmA/o.jpg", "is_closed": false, "url": "https://www.yelp.com/biz/maxwell-bar-b-que-maxwell?adjust_creative=xjhN_lk3nOT5MdOw5Vddqg&utm_campaign=yelp_api_v3&utm_medium=api_v3_business_search&utm_source=xjhN_lk3nOT5MdOw5Vddqg", "review_count": 1, "categories": [{"alias": "bbq", "title": "Barbeque"}], "rating": 5.0, "coordinates": {"latitude": 29.88109, "longitude": -97.79596}, "transactions": [], "location": {"address1": "109 Railroad St", "address2": "", "address3": null, "city": "Maxwell", "zip_code": "78656", "country": "US", "state": "TX", "display_address": ["109 Railroad St", "Maxwell, TX 78656"]}, "phone": "", "display_phone": "", "distance": 11503.611167812096}, {"id": "IhJtGKTiiWgPlvTdzt49lw", "alias": "whizzerville-hall-mcmahan", "name": "Whizzerville Hall", "image_url": "https://s3-media1.fl.yelpcdn.com/bphoto/PvmAE_gpn2riC2aTLMirTw/o.jpg", "is_closed": false, "url": "https://www.yelp.com/biz/whizzerville-hall-mcmahan?adjust_creative=xjhN_lk3nOT5MdOw5Vddqg&utm_campaign=yelp_api_v3&utm_medium=api_v3_business_search&utm_source=xjhN_lk3nOT5MdOw5Vddqg", "review_count": 32, "categories": [{"alias": "pizza", "title": "Pizza"}], "rating": 4.5, "coordinates": {"latitude": 29.8525332165748, "longitude": -97.5205049738339}, "transactions": [], "price": "$$", "location": {"address1": "6320 Fm 713", "address2": null, "address3": null, "city": "McMahan", "zip_code": "78616", "country": "US", "state": "TX", "display_address": ["6320 Fm 713", "McMahan, TX 78616"]}, "phone": "+15123984601", "display_phone": "(512) 398-4601", "distance": 15420.058502137641}, {"id": "KqIFqRwN2Nz_Cu2yVdqYcA", "alias": "texas-pie-company-kyle", "name": "Texas Pie Company", "image_url": "https://s3-media1.fl.yelpcdn.com/bphoto/HeetyopM3JUHtBfejIimZA/o.jpg", "is_closed": false, "url": "https://www.yelp.com/biz/texas-pie-company-kyle?adjust_creative=xjhN_lk3nOT5MdOw5Vddqg&utm_campaign=yelp_api_v3&utm_medium=api_v3_business_search&utm_source=xjhN_lk3nOT5MdOw5Vddqg", "review_count": 339, "categories": [{"alias": "bakeries", "title": "Bakeries"}, {"alias": "desserts", "title": "Desserts"}, {"alias": "sandwiches", "title": "Sandwiches"}], "rating": 4.0, "coordinates": {"latitude": 29.98883, "longitude": -97.8764999}, "transactions": ["delivery"], "price": "$$", "location": {"address1": "202 W Center St", "address2": "", "address3": "", "city": "Kyle", "zip_code": "78640", "country": "US", "state": "TX", "display_address": ["202 W Center St", "Kyle, TX 78640"]}, "phone": "+15122685885", "display_phone": "(512) 268-5885", "distance": 22609.681250188936}, {"id": "YfLbmvoZeCEnsO5y7JZxvw", "alias": "the-railhouse-kyle", "name": "The Railhouse", "image_url": "https://s3-media4.fl.yelpcdn.com/bphoto/ZIOrn0Dh9xKrM-INlqxagQ/o.jpg", "is_closed": false, "url": "https://www.yelp.com/biz/the-railhouse-kyle?adjust_creative=xjhN_lk3nOT5MdOw5Vddqg&utm_campaign=yelp_api_v3&utm_medium=api_v3_business_search&utm_source=xjhN_lk3nOT5MdOw5Vddqg", "review_count": 93, "categories": [{"alias": "bars", "title": "Bars"}, {"alias": "tacos", "title": "Tacos"}, {"alias": "sandwiches", "title": "Sandwiches"}], "rating": 3.5, "coordinates": {"latitude": 29.987664, "longitude": -97.874634}, "transactions": ["pickup", "delivery"], "price": "$$", "location": {"address1": "107 E Center St", "address2": "", "address3": null, "city": "Kyle", "zip_code": "78640", "country": "US", "state": "TX", "display_address": ["107 E Center St", "Kyle, TX 78640"]}, "phone": "", "display_phone": "", "distance": 22398.919599510962}, {"id": "em_gpJ2bDpy96kYsh-T6Lg", "alias": "bon-ton-market-uhland", "name": "Bon Ton Market", "image_url": "https://s3-media3.fl.yelpcdn.com/bphoto/VXzh1rwzLk_LcuQXbx8x_g/o.jpg", "is_closed": false, "url": "https://www.yelp.com/biz/bon-ton-market-uhland?adjust_creative=xjhN_lk3nOT5MdOw5Vddqg&utm_campaign=yelp_api_v3&utm_medium=api_v3_business_search&utm_source=xjhN_lk3nOT5MdOw5Vddqg", "review_count": 30, "categories": [{"alias": "meats", "title": "Meat Shops"}], "rating": 4.5, "coordinates": {"latitude": 29.94552918531339, "longitude": -97.7970052391908}, "transactions": [], "price": "$$", "location": {"address1": "115 S Camino Real", "address2": null, "address3": null, "city": "Uhland", "zip_code": "78640", "country": "US", "state": "TX", "display_address": ["115 S Camino Real", "Uhland, TX 78640"]}, "phone": "+15123983810", "display_phone": "(512) 398-3810", "distance": 13561.168547775615}, {"id": "3fxL7l0Z7fkW0vsAWg1hgQ", "alias": "rositas-restaurante-lockhart", "name": "Rositas Restaurante", "image_url": "https://s3-media3.fl.yelpcdn.com/bphoto/UUTyFhJNtD2gYPJFsHiKRA/o.jpg", "is_closed": false, "url": "https://www.yelp.com/biz/rositas-restaurante-lockhart?adjust_creative=xjhN_lk3nOT5MdOw5Vddqg&utm_campaign=yelp_api_v3&utm_medium=api_v3_business_search&utm_source=xjhN_lk3nOT5MdOw5Vddqg", "review_count": 11, "categories": [{"alias": "mexican", "title": "Mexican"}], "rating": 5.0, "coordinates": {"latitude": 29.8857297565085, "longitude": -97.6718958151068}, "transactions": [], "price": "$", "location": {"address1": "115 E Walnut St", "address2": "", "address3": null, "city": "Lockhart", "zip_code": "78644", "country": "US", "state": "TX", "display_address": ["115 E Walnut St", "Lockhart, TX 78644"]}, "phone": "+15126683030", "display_phone": "(512) 668-3030", "distance": 600.6169458113224}, {"id": "Izh38YvX19AnMgZEqy2Kag", "alias": "mr-taco-lockhart", "name": "Mr Taco", "image_url": "https://s3-media1.fl.yelpcdn.com/bphoto/UJDRThMCdFrCgltKmEDuyA/o.jpg", "is_closed": false, "url": "https://www.yelp.com/biz/mr-taco-lockhart?adjust_creative=xjhN_lk3nOT5MdOw5Vddqg&utm_campaign=yelp_api_v3&utm_medium=api_v3_business_search&utm_source=xjhN_lk3nOT5MdOw5Vddqg", "review_count": 116, "categories": [{"alias": "mexican", "title": "Mexican"}], "rating": 2.5, "coordinates": {"latitude": 29.8763809204102, "longitude": -97.6691055297852}, "transactions": [], "price": "$", "location": {"address1": "831 S Colorado St", "address2": "", "address3": "", "city": "Lockhart", "zip_code": "78644", "country": "US", "state": "TX", "display_address": ["831 S Colorado St", "Lockhart, TX 78644"]}, "phone": "+15123982704", "display_phone": "(512) 398-2704", "distance": 991.5791539948025}, {"id": "NDX5DrjXNAE-nbaM18-85Q", "alias": "loop-and-lils-pizza-lockhart", "name": "Loop & Lil's Pizza", "image_url": "https://s3-media2.fl.yelpcdn.com/bphoto/o7DBOkZ1aNQ_ecZoq9HTBw/o.jpg", "is_closed": false, "url": "https://www.yelp.com/biz/loop-and-lils-pizza-lockhart?adjust_creative=xjhN_lk3nOT5MdOw5Vddqg&utm_campaign=yelp_api_v3&utm_medium=api_v3_business_search&utm_source=xjhN_lk3nOT5MdOw5Vddqg", "review_count": 156, "categories": [{"alias": "pizza", "title": "Pizza"}], "rating": 4.5, "coordinates": {"latitude": 29.88505, "longitude": -97.67264}, "transactions": [], "price": "$$", "location": {"address1": "107 N Main St", "address2": "", "address3": "", "city": "Lockhart", "zip_code": "78644", "country": "US", "state": "TX", "display_address": ["107 N Main St", "Lockhart, TX 78644"]}, "phone": "+15126683108", "display_phone": "(512) 668-3108", "distance": 497.17052114521204}, {"id": "UlxcX-R5Dsqb1YurEGzd4A", "alias": "mws-catering-llc-kyle", "name": "MWS Catering LLC", "image_url": "https://s3-media1.fl.yelpcdn.com/bphoto/0sapScWNiMTyb6wqNKKePQ/o.jpg", "is_closed": false, "url": "https://www.yelp.com/biz/mws-catering-llc-kyle?adjust_creative=xjhN_lk3nOT5MdOw5Vddqg&utm_campaign=yelp_api_v3&utm_medium=api_v3_business_search&utm_source=xjhN_lk3nOT5MdOw5Vddqg", "review_count": 13, "categories": [{"alias": "foodtrucks", "title": "Food Trucks"}, {"alias": "catering", "title": "Caterers"}, {"alias": "bbq", "title": "Barbeque"}], "rating": 4.5, "coordinates": {"latitude": 29.9874987935673, "longitude": -97.8747486101533}, "transactions": [], "price": "$", "location": {"address1": "107 E Center St", "address2": null, "address3": "", "city": "Kyle", "zip_code": "78640", "country": "US", "state": "TX", "display_address": ["107 E Center St", "Kyle, TX 78640"]}, "phone": "+15126187418", "display_phone": "(512) 618-7418", "distance": 22384.80145550053}, {"id": "aziu1eJcY0FScoy_mwayDA", "alias": "la-cantera-mexican-restaurant-lockhart", "name": "La Cantera Mexican Restaurant", "image_url": "https://s3-media2.fl.yelpcdn.com/bphoto/_2rq7okikqjZtMIUB8Uk4g/o.jpg", "is_closed": false, "url": "https://www.yelp.com/biz/la-cantera-mexican-restaurant-lockhart?adjust_creative=xjhN_lk3nOT5MdOw5Vddqg&utm_campaign=yelp_api_v3&utm_medium=api_v3_business_search&utm_source=xjhN_lk3nOT5MdOw5Vddqg", "review_count": 53, "categories": [{"alias": "mexican", "title": "Mexican"}, {"alias": "breakfast_brunch", "title": "Breakfast & Brunch"}, {"alias": "seafood", "title": "Seafood"}], "rating": 4.5, "coordinates": {"latitude": 29.88591, "longitude": -97.67174}, "transactions": [], "price": "$", "location": {"address1": "119 E Walnut St", "address2": "", "address3": null, "city": "Lockhart", "zip_code": "78644", "country": "US", "state": "TX", "display_address": ["119 E Walnut St", "Lockhart, TX 78644"]}, "phone": "+15126684003", "display_phone": "(512) 668-4003", "distance": 620.7771109236393}, {"id": "LExg6_mTGPovensOsG2NcQ", "alias": "bravo-company-barbeque-and-catering-kyle", "name": "Bravo Company Barbeque & Catering", "image_url": "https://s3-media2.fl.yelpcdn.com/bphoto/gkaaeszIGxPCCu3AsRilqQ/o.jpg", "is_closed": false, "url": "https://www.yelp.com/biz/bravo-company-barbeque-and-catering-kyle?adjust_creative=xjhN_lk3nOT5MdOw5Vddqg&utm_campaign=yelp_api_v3&utm_medium=api_v3_business_search&utm_source=xjhN_lk3nOT5MdOw5Vddqg", "review_count": 5, "categories": [{"alias": "catering", "title": "Caterers"}, {"alias": "bbq", "title": "Barbeque"}], "rating": 5.0, "coordinates": {"latitude": 29.97941, "longitude": -97.86601}, "transactions": [], "location": {"address1": "394 Verano Cir", "address2": null, "address3": "", "city": "Kyle", "zip_code": "78640", "country": "US", "state": "TX", "display_address": ["394 Verano Cir", "Kyle, TX 78640"]}, "phone": "+15126993674", "display_phone": "(512) 699-3674", "distance": 21208.82549288723}, {"id": "L0a4AAnyQeswiCwxjimzQA", "alias": "chaparral-coffee-lockhart", "name": "Chaparral Coffee", "image_url": "https://s3-media4.fl.yelpcdn.com/bphoto/-oQcZFGy8t1rSsZ7M4lThA/o.jpg", "is_closed": false, "url": "https://www.yelp.com/biz/chaparral-coffee-lockhart?adjust_creative=xjhN_lk3nOT5MdOw5Vddqg&utm_campaign=yelp_api_v3&utm_medium=api_v3_business_search&utm_source=xjhN_lk3nOT5MdOw5Vddqg", "review_count": 60, "categories": [{"alias": "coffee", "title": "Coffee & Tea"}, {"alias": "bakeries", "title": "Bakeries"}], "rating": 4.5, "coordinates": {"latitude": 29.88369, "longitude": -97.67184}, "transactions": [], "price": "$", "location": {"address1": "106 E Market St", "address2": "", "address3": "", "city": "Lockhart", "zip_code": "78644", "country": "US", "state": "TX", "display_address": ["106 E Market St", "Lockhart, TX 78644"]}, "phone": "+15126684274", "display_phone": "(512) 668-4274", "distance": 492.93492543088104}, {"id": "D7vFIFvZBbhcP3jZ3eZeXQ", "alias": "hawaiian-bros-island-grill-kyle", "name": "Hawaiian Bros Island Grill", "image_url": "https://s3-media1.fl.yelpcdn.com/bphoto/Ns_PIbAAlhJqYR_MOTGtCA/o.jpg", "is_closed": false, "url": "https://www.yelp.com/biz/hawaiian-bros-island-grill-kyle?adjust_creative=xjhN_lk3nOT5MdOw5Vddqg&utm_campaign=yelp_api_v3&utm_medium=api_v3_business_search&utm_source=xjhN_lk3nOT5MdOw5Vddqg", "review_count": 120, "categories": [{"alias": "hawaiian", "title": "Hawaiian"}], "rating": 4.0, "coordinates": {"latitude": 30.012767, "longitude": -97.859432}, "transactions": ["pickup", "delivery"], "location": {"address1": "20471 I-35", "address2": null, "address3": "", "city": "Kyle", "zip_code": "78640", "country": "US", "state": "TX", "display_address": ["20471 I-35", "Kyle, TX 78640"]}, "phone": "+15122704918", "display_phone": "(512) 270-4918", "distance": 22814.313875624423}, {"id": "dcK1DjcDaOJMLo3Rpyz1uA", "alias": "pizza-leon-kyle-kyle", "name": "Pizza Leon Kyle", "image_url": "https://s3-media2.fl.yelpcdn.com/bphoto/pevdlk87ZwvCnNlhTs8hOg/o.jpg", "is_closed": false, "url": "https://www.yelp.com/biz/pizza-leon-kyle-kyle?adjust_creative=xjhN_lk3nOT5MdOw5Vddqg&utm_campaign=yelp_api_v3&utm_medium=api_v3_business_search&utm_source=xjhN_lk3nOT5MdOw5Vddqg", "review_count": 18, "categories": [{"alias": "pizza", "title": "Pizza"}, {"alias": "salad", "title": "Salad"}, {"alias": "beer_and_wine", "title": "Beer, Wine & Spirits"}], "rating": 4.5, "coordinates": {"latitude": 30.00002, "longitude": -97.86144}, "transactions": ["pickup", "delivery"], "location": {"address1": "147 Elmhurst Dr", "address2": "Ste 100", "address3": "", "city": "Kyle", "zip_code": "78640", "country": "US", "state": "TX", "display_address": ["147 Elmhurst Dr", "Ste 100", "Kyle, TX 78640"]}, "phone": "+15122627456", "display_phone": "(512) 262-7456", "distance": 22060.9500230913}, {"id": "7sqUZG5BINIi638GoJRaGQ", "alias": "kfc-lockhart", "name": "KFC", "image_url": "https://s3-media4.fl.yelpcdn.com/bphoto/H_Ve1WCAB7vW7G4WzfFLBw/o.jpg", "is_closed": false, "url": "https://www.yelp.com/biz/kfc-lockhart?adjust_creative=xjhN_lk3nOT5MdOw5Vddqg&utm_campaign=yelp_api_v3&utm_medium=api_v3_business_search&utm_source=xjhN_lk3nOT5MdOw5Vddqg", "review_count": 11, "categories": [{"alias": "chickenshop", "title": "Chicken Shop"}, {"alias": "hotdogs", "title": "Fast Food"}, {"alias": "chicken_wings", "title": "Chicken Wings"}], "rating": 3.0, "coordinates": {"latitude": 29.857326934783735, "longitude": -97.66771911789135}, "transactions": ["pickup"], "price": "$", "location": {"address1": "1908 S Colorado St", "address2": "", "address3": null, "city": "Lockhart", "zip_code": "78644", "country": "US", "state": "TX", "display_address": ["1908 S Colorado St", "Lockhart, TX 78644"]}, "phone": "+15126683000", "display_phone": "(512) 668-3000", "distance": 2907.3557180798143}, {"id": "9f11k-5vEIdDmgofYLD1Ig", "alias": "glenns-bar-and-grill-at-plum-creek-golf-course-kyle", "name": "Glenn's Bar & Grill at Plum Creek Golf Course", "image_url": "https://s3-media3.fl.yelpcdn.com/bphoto/_BLmjYqUcHLYalfaahV7oQ/o.jpg", "is_closed": false, "url": "https://www.yelp.com/biz/glenns-bar-and-grill-at-plum-creek-golf-course-kyle?adjust_creative=xjhN_lk3nOT5MdOw5Vddqg&utm_campaign=yelp_api_v3&utm_medium=api_v3_business_search&utm_source=xjhN_lk3nOT5MdOw5Vddqg", "review_count": 2, "categories": [{"alias": "bars", "title": "Bars"}, {"alias": "burgers", "title": "Burgers"}, {"alias": "chicken_wings", "title": "Chicken Wings"}], "rating": 5.0, "coordinates": {"latitude": 30.026654, "longitude": -97.8784062}, "transactions": ["pickup", "delivery"], "location": {"address1": "4301 Benner", "address2": null, "address3": null, "city": "Kyle", "zip_code": "78640", "country": "US", "state": "TX", "display_address": ["4301 Benner", "Kyle, TX 78640"]}, "phone": "+15122625555", "display_phone": "(512) 262-5555", "distance": 25205.837268809548}, {"id": "a_pbD6da31YHgMyLBlJ1Dg", "alias": "centerfield-sports-bar-and-grill-kyle", "name": "Centerfield Sports Bar & Grill", "image_url": "https://s3-media1.fl.yelpcdn.com/bphoto/0u0uXqW0yyFnXCbY9bJAOg/o.jpg", "is_closed": false, "url": "https://www.yelp.com/biz/centerfield-sports-bar-and-grill-kyle?adjust_creative=xjhN_lk3nOT5MdOw5Vddqg&utm_campaign=yelp_api_v3&utm_medium=api_v3_business_search&utm_source=xjhN_lk3nOT5MdOw5Vddqg", "review_count": 150, "categories": [{"alias": "sportsbars", "title": "Sports Bars"}, {"alias": "beer_and_wine", "title": "Beer, Wine & Spirits"}, {"alias": "newamerican", "title": "American (New)"}], "rating": 3.0, "coordinates": {"latitude": 29.9887268990278, "longitude": -97.8764677047729}, "transactions": ["delivery"], "price": "$$", "location": {"address1": "200 W Center St", "address2": null, "address3": "", "city": "Kyle", "zip_code": "78640", "country": "US", "state": "TX", "display_address": ["200 W Center St", "Kyle, TX 78640"]}, "phone": "+15122681400", "display_phone": "(512) 268-1400", "distance": 22595.17501505249}, {"id": "dAgEO4rWcILICBRbVXsdLg", "alias": "dairy-queen-lockhart", "name": "Dairy Queen", "image_url": "https://s3-media4.fl.yelpcdn.com/bphoto/Q_lih10F0r829IeftTgrng/o.jpg", "is_closed": false, "url": "https://www.yelp.com/biz/dairy-queen-lockhart?adjust_creative=xjhN_lk3nOT5MdOw5Vddqg&utm_campaign=yelp_api_v3&utm_medium=api_v3_business_search&utm_source=xjhN_lk3nOT5MdOw5Vddqg", "review_count": 24, "categories": [{"alias": "icecream", "title": "Ice Cream & Frozen Yogurt"}, {"alias": "hotdogs", "title": "Fast Food"}, {"alias": "burgers", "title": "Burgers"}], "rating": 3.5, "coordinates": {"latitude": 29.87258, "longitude": -97.66939}, "transactions": [], "price": "$", "location": {"address1": "1125 S Colorado", "address2": "", "address3": "", "city": "Lockhart", "zip_code": "78644", "country": "US", "state": "TX", "display_address": ["1125 S Colorado", "Lockhart, TX 78644"]}, "phone": "+15123764817", "display_phone": "(512) 376-4817", "distance": 1286.4226309324874}, {"id": "u4ymkXqRkpkZpIKaejwuLg", "alias": "sonic-drive-in-lockhart", "name": "Sonic Drive-In", "image_url": "https://s3-media3.fl.yelpcdn.com/bphoto/AkeWpBWjWSIxJTNa0UIG3Q/o.jpg", "is_closed": false, "url": "https://www.yelp.com/biz/sonic-drive-in-lockhart?adjust_creative=xjhN_lk3nOT5MdOw5Vddqg&utm_campaign=yelp_api_v3&utm_medium=api_v3_business_search&utm_source=xjhN_lk3nOT5MdOw5Vddqg", "review_count": 18, "categories": [{"alias": "hotdogs", "title": "Fast Food"}, {"alias": "burgers", "title": "Burgers"}, {"alias": "icecream", "title": "Ice Cream & Frozen Yogurt"}], "rating": 1.0, "coordinates": {"latitude": 29.8763611013299, "longitude": -97.6685664}, "transactions": [], "price": "$", "location": {"address1": "830 S Colorado", "address2": "", "address3": "", "city": "Lockhart", "zip_code": "78644", "country": "US", "state": "TX", "display_address": ["830 S Colorado", "Lockhart, TX 78644"]}, "phone": "+15123986240", "display_phone": "(512) 398-6240", "distance": 1024.0828863487272}, {"id": "Lk95okjw2iRlUer4yxKO0A", "alias": "pizza-hut-lockhart-4", "name": "Pizza Hut", "image_url": "https://s3-media1.fl.yelpcdn.com/bphoto/lGAJB0Q3vJ67sBNK7PvNKw/o.jpg", "is_closed": false, "url": "https://www.yelp.com/biz/pizza-hut-lockhart-4?adjust_creative=xjhN_lk3nOT5MdOw5Vddqg&utm_campaign=yelp_api_v3&utm_medium=api_v3_business_search&utm_source=xjhN_lk3nOT5MdOw5Vddqg", "review_count": 11, "categories": [{"alias": "pizza", "title": "Pizza"}, {"alias": "chicken_wings", "title": "Chicken Wings"}, {"alias": "hotdogs", "title": "Fast Food"}], "rating": 1.5, "coordinates": {"latitude": 29.879844, "longitude": -97.669037}, "transactions": [], "price": "$", "location": {"address1": "610 S Colorado", "address2": "", "address3": "", "city": "Lockhart", "zip_code": "78644", "country": "US", "state": "TX", "display_address": ["610 S Colorado", "Lockhart, TX 78644"]}, "phone": "+15123983451", "display_phone": "(512) 398-3451", "distance": 786.2852201546216}, {"id": "DCdq2Rdj8KxSZK_sntJLew", "alias": "wicked-wings-kyle", "name": "Wicked Wings", "image_url": "https://s3-media1.fl.yelpcdn.com/bphoto/VeTyY7HM1hyFnHkH_Ud54g/o.jpg", "is_closed": false, "url": "https://www.yelp.com/biz/wicked-wings-kyle?adjust_creative=xjhN_lk3nOT5MdOw5Vddqg&utm_campaign=yelp_api_v3&utm_medium=api_v3_business_search&utm_source=xjhN_lk3nOT5MdOw5Vddqg", "review_count": 93, "categories": [{"alias": "chicken_wings", "title": "Chicken Wings"}, {"alias": "sportsbars", "title": "Sports Bars"}, {"alias": "pizza", "title": "Pizza"}], "rating": 3.0, "coordinates": {"latitude": 30.01660623920395, "longitude": -97.864189}, "transactions": ["pickup", "delivery"], "price": "$$", "location": {"address1": "5401 FM 1626", "address2": "Ste 305", "address3": null, "city": "Kyle", "zip_code": "78640", "country": "US", "state": "TX", "display_address": ["5401 FM 1626", "Ste 305", "Kyle, TX 78640"]}, "phone": "+15122627957", "display_phone": "(512) 262-7957", "distance": 23438.990438392557}, {"id": "3GRne0T-d2dK6Xka4X0tzw", "alias": "pho-99-asian-cuisine-kyle", "name": "Pho 99 Asian Cuisine", "image_url": "https://s3-media1.fl.yelpcdn.com/bphoto/BHkUYe0-Bhg0WBt69XJ6gA/o.jpg", "is_closed": false, "url": "https://www.yelp.com/biz/pho-99-asian-cuisine-kyle?adjust_creative=xjhN_lk3nOT5MdOw5Vddqg&utm_campaign=yelp_api_v3&utm_medium=api_v3_business_search&utm_source=xjhN_lk3nOT5MdOw5Vddqg", "review_count": 127, "categories": [{"alias": "asianfusion", "title": "Asian Fusion"}, {"alias": "vietnamese", "title": "Vietnamese"}], "rating": 3.5, "coordinates": {"latitude": 30.009999, "longitude": -97.857016}, "transactions": ["pickup", "delivery"], "price": "$$", "location": {"address1": "5896 Kyle Pkwy", "address2": null, "address3": "", "city": "Kyle", "zip_code": "78640", "country": "US", "state": "TX", "display_address": ["5896 Kyle Pkwy", "Kyle, TX 78640"]}, "phone": "+15122627289", "display_phone": "(512) 262-7289", "distance": 22439.01992388126}, {"id": "DwZo8zctKdrgHOQ_5_Owcw", "alias": "aviator-pizza-and-drafthouse-kyle", "name": "Aviator Pizza & Drafthouse", "image_url": "https://s3-media3.fl.yelpcdn.com/bphoto/zAvUkj_ia7wNB_T57uTYEg/o.jpg", "is_closed": false, "url": "https://www.yelp.com/biz/aviator-pizza-and-drafthouse-kyle?adjust_creative=xjhN_lk3nOT5MdOw5Vddqg&utm_campaign=yelp_api_v3&utm_medium=api_v3_business_search&utm_source=xjhN_lk3nOT5MdOw5Vddqg", "review_count": 177, "categories": [{"alias": "pizza", "title": "Pizza"}, {"alias": "beerbar", "title": "Beer Bar"}, {"alias": "salad", "title": "Salad"}], "rating": 4.0, "coordinates": {"latitude": 30.0273636218264, "longitude": -97.876906197063}, "transactions": ["delivery"], "price": "$$", "location": {"address1": "856 Kohlers Crossing", "address2": "Ste 350", "address3": null, "city": "Kyle", "zip_code": "78640", "country": "US", "state": "TX", "display_address": ["856 Kohlers Crossing", "Ste 350", "Kyle, TX 78640"]}, "phone": "+15128273553", "display_phone": "(512) 827-3553", "distance": 25145.08666727349}, {"id": "W5hrOP0C6QPq-GnOvdW_DQ", "alias": "smoothie-king-kyle", "name": "Smoothie King", "image_url": "https://s3-media2.fl.yelpcdn.com/bphoto/UNFqqUSQbiRAfekSyiHOEw/o.jpg", "is_closed": false, "url": "https://www.yelp.com/biz/smoothie-king-kyle?adjust_creative=xjhN_lk3nOT5MdOw5Vddqg&utm_campaign=yelp_api_v3&utm_medium=api_v3_business_search&utm_source=xjhN_lk3nOT5MdOw5Vddqg", "review_count": 19, "categories": [{"alias": "juicebars", "title": "Juice Bars & Smoothies"}], "rating": 2.5, "coordinates": {"latitude": 30.00918, "longitude": -97.85647}, "transactions": ["delivery", "pickup"], "location": {"address1": "5940 Kyle Pkwy", "address2": "Ste 115", "address3": null, "city": "Kyle", "zip_code": "78640", "country": "US", "state": "TX", "display_address": ["5940 Kyle Pkwy", "Ste 115", "Kyle, TX 78640"]}, "phone": "+19856356973", "display_phone": "(985) 635-6973", "distance": 22340.7406939734}, {"id": "Deu6u-xZubA8vdyzw-D6ng", "alias": "h-e-b-plus-kyle", "name": "H E B Plus", "image_url": "https://s3-media2.fl.yelpcdn.com/bphoto/cxSgMLP0YiiaYuAlyeqRPg/o.jpg", "is_closed": false, "url": "https://www.yelp.com/biz/h-e-b-plus-kyle?adjust_creative=xjhN_lk3nOT5MdOw5Vddqg&utm_campaign=yelp_api_v3&utm_medium=api_v3_business_search&utm_source=xjhN_lk3nOT5MdOw5Vddqg", "review_count": 172, "categories": [{"alias": "grocery", "title": "Grocery"}], "rating": 3.5, "coordinates": {"latitude": 30.016496885311952, "longitude": -97.86148323639532}, "transactions": [], "price": "$$", "location": {"address1": "5401 S FM 1626", "address2": "", "address3": "", "city": "Kyle", "zip_code": "78640", "country": "US", "state": "TX", "display_address": ["5401 S FM 1626", "Kyle, TX 78640"]}, "phone": "+15122687900", "display_phone": "(512) 268-7900", "distance": 23230.8665465871}, {"id": "mORvraKkxjK42vHwCKfedg", "alias": "7-eleven-kyle-2", "name": "7-Eleven", "image_url": "https://s3-media1.fl.yelpcdn.com/bphoto/qG-a69CZW20P6iQ2nV2DXw/o.jpg", "is_closed": false, "url": "https://www.yelp.com/biz/7-eleven-kyle-2?adjust_creative=xjhN_lk3nOT5MdOw5Vddqg&utm_campaign=yelp_api_v3&utm_medium=api_v3_business_search&utm_source=xjhN_lk3nOT5MdOw5Vddqg", "review_count": 6, "categories": [{"alias": "convenience", "title": "Convenience Stores"}, {"alias": "servicestations", "title": "Gas Stations"}, {"alias": "coffee", "title": "Coffee & Tea"}], "rating": 2.5, "coordinates": {"latitude": 29.98831, "longitude": -97.871143}, "transactions": ["delivery", "pickup"], "price": "$", "location": {"address1": "22553 Ih 35", "address2": "", "address3": "", "city": "Kyle", "zip_code": "78640", "country": "US", "state": "TX", "display_address": ["22553 Ih 35", "Kyle, TX 78640"]}, "phone": "+15122681737", "display_phone": "(512) 268-1737", "distance": 22137.175583707}, {"id": "YtwTg_ooE8pqO9O6_IK0RA", "alias": "taqueria-los-jaliscienses-kyle", "name": "Taqueria Los Jaliscienses", "image_url": "https://s3-media3.fl.yelpcdn.com/bphoto/t8wu43zPhdEUMYm96OcFrA/o.jpg", "is_closed": false, "url": "https://www.yelp.com/biz/taqueria-los-jaliscienses-kyle?adjust_creative=xjhN_lk3nOT5MdOw5Vddqg&utm_campaign=yelp_api_v3&utm_medium=api_v3_business_search&utm_source=xjhN_lk3nOT5MdOw5Vddqg", "review_count": 36, "categories": [{"alias": "tacos", "title": "Tacos"}], "rating": 3.0, "coordinates": {"latitude": 30.00725, "longitude": -97.85957}, "transactions": ["delivery"], "location": {"address1": "1101 Bunton Creek Rd", "address2": "", "address3": null, "city": "Kyle", "zip_code": "78640", "country": "US", "state": "TX", "display_address": ["1101 Bunton Creek Rd", "Kyle, TX 78640"]}, "phone": "+15122689197", "display_phone": "(512) 268-9197", "distance": 21911.701809785074}, {"id": "DwUlYThZUwsn4KXzlj43Yw", "alias": "dennys-kyle", "name": "Denny's", "image_url": "https://s3-media1.fl.yelpcdn.com/bphoto/oO4BfYYNWl55nF7KvZDiIg/o.jpg", "is_closed": false, "url": "https://www.yelp.com/biz/dennys-kyle?adjust_creative=xjhN_lk3nOT5MdOw5Vddqg&utm_campaign=yelp_api_v3&utm_medium=api_v3_business_search&utm_source=xjhN_lk3nOT5MdOw5Vddqg", "review_count": 31, "categories": [{"alias": "breakfast_brunch", "title": "Breakfast & Brunch"}, {"alias": "tradamerican", "title": "American (Traditional)"}, {"alias": "diners", "title": "Diners"}], "rating": 2.0, "coordinates": {"latitude": 30.031361640720274, "longitude": -97.8490857023974}, "transactions": ["delivery", "pickup"], "location": {"address1": "19020 IH35", "address2": null, "address3": null, "city": "Kyle", "zip_code": "78640", "country": "US", "state": "TX", "display_address": ["19020 IH35", "Kyle, TX 78640"]}, "phone": "+17373340695", "display_phone": "(737) 334-0695", "distance": 23464.710526855928}, {"id": "rFQ2z3GqaWCmC6--klTd8Q", "alias": "schlotzskys-kyle", "name": "Schlotzsky's", "image_url": "https://s3-media2.fl.yelpcdn.com/bphoto/Yp6fy2LMJORaDrUASXyJwA/o.jpg", "is_closed": false, "url": "https://www.yelp.com/biz/schlotzskys-kyle?adjust_creative=xjhN_lk3nOT5MdOw5Vddqg&utm_campaign=yelp_api_v3&utm_medium=api_v3_business_search&utm_source=xjhN_lk3nOT5MdOw5Vddqg", "review_count": 59, "categories": [{"alias": "sandwiches", "title": "Sandwiches"}, {"alias": "delis", "title": "Delis"}, {"alias": "catering", "title": "Caterers"}], "rating": 2.0, "coordinates": {"latitude": 30.028039, "longitude": -97.85178637718688}, "transactions": ["delivery", "pickup"], "price": "$", "location": {"address1": "19350 Ih 35 S", "address2": "", "address3": "", "city": "Kyle", "zip_code": "78640", "country": "US", "state": "TX", "display_address": ["19350 Ih 35 S", "Kyle, TX 78640"]}, "phone": "+15122627267", "display_phone": "(512) 262-7267", "distance": 23392.304380785623}, {"id": "fFedPVaRiYe3KDCzunLzcA", "alias": "firehouse-subs-kyle", "name": "Firehouse Subs", "image_url": "https://s3-media2.fl.yelpcdn.com/bphoto/EDeNqi_LqoYWg6-Nvon4Gg/o.jpg", "is_closed": false, "url": "https://www.yelp.com/biz/firehouse-subs-kyle?adjust_creative=xjhN_lk3nOT5MdOw5Vddqg&utm_campaign=yelp_api_v3&utm_medium=api_v3_business_search&utm_source=xjhN_lk3nOT5MdOw5Vddqg", "review_count": 70, "categories": [{"alias": "sandwiches", "title": "Sandwiches"}, {"alias": "hotdogs", "title": "Fast Food"}, {"alias": "delis", "title": "Delis"}], "rating": 3.5, "coordinates": {"latitude": 30.0127, "longitude": -97.85813}, "transactions": ["delivery", "pickup"], "price": "$", "location": {"address1": "5695 Kyle Pkwy", "address2": "", "address3": "", "city": "Kyle", "zip_code": "78640", "country": "US", "state": "TX", "display_address": ["5695 Kyle Pkwy", "Kyle, TX 78640"]}, "phone": "+15125049443", "display_phone": "(512) 504-9443", "distance": 22712.61048224444}, {"id": "XdpppXv1Wk0ig1NRJnVpVg", "alias": "applebees-grill-bar-kyle-2", "name": "Applebee's Grill + Bar", "image_url": "https://s3-media4.fl.yelpcdn.com/bphoto/7HaR9OSQa0vPIyyJ6AKqWw/o.jpg", "is_closed": false, "url": "https://www.yelp.com/biz/applebees-grill-bar-kyle-2?adjust_creative=xjhN_lk3nOT5MdOw5Vddqg&utm_campaign=yelp_api_v3&utm_medium=api_v3_business_search&utm_source=xjhN_lk3nOT5MdOw5Vddqg", "review_count": 126, "categories": [{"alias": "tradamerican", "title": "American (Traditional)"}, {"alias": "sportsbars", "title": "Sports Bars"}, {"alias": "burgers", "title": "Burgers"}], "rating": 2.0, "coordinates": {"latitude": 30.010682, "longitude": -97.863027}, "transactions": ["delivery", "pickup"], "price": "$$", "location": {"address1": "5363 Kyle Center Dr", "address2": "", "address3": "", "city": "Kyle", "zip_code": "78640", "country": "US", "state": "TX", "display_address": ["5363 Kyle Center Dr", "Kyle, TX 78640"]}, "phone": "+15122682362", "display_phone": "(512) 268-2362", "distance": 22937.51990902997}, {"id": "dTUzr9II6hOZuF3UCSslHA", "alias": "arbys-kyle", "name": "Arby's", "image_url": "https://s3-media2.fl.yelpcdn.com/bphoto/xgavzYJp0MS7n7ox5cJLUg/o.jpg", "is_closed": false, "url": "https://www.yelp.com/biz/arbys-kyle?adjust_creative=xjhN_lk3nOT5MdOw5Vddqg&utm_campaign=yelp_api_v3&utm_medium=api_v3_business_search&utm_source=xjhN_lk3nOT5MdOw5Vddqg", "review_count": 8, "categories": [{"alias": "hotdogs", "title": "Fast Food"}, {"alias": "sandwiches", "title": "Sandwiches"}], "rating": 3.0, "coordinates": {"latitude": 30.01372, "longitude": -97.85899}, "transactions": ["delivery", "pickup"], "location": {"address1": "20417 North I-35 Frontage Rd", "address2": null, "address3": null, "city": "Kyle", "zip_code": "78640", "country": "US", "state": "TX", "display_address": ["20417 North I-35 Frontage Rd", "Kyle, TX 78640"]}, "phone": "+15125043464", "display_phone": "(512) 504-3464", "distance": 22859.107887913662}, {"id": "MV08b_BkppZwDI-Vw3Fe3g", "alias": "marcos-pizza-kyle", "name": "Marco's Pizza", "image_url": "https://s3-media1.fl.yelpcdn.com/bphoto/dzB1uq3JJzjneCzpR0UOaw/o.jpg", "is_closed": false, "url": "https://www.yelp.com/biz/marcos-pizza-kyle?adjust_creative=xjhN_lk3nOT5MdOw5Vddqg&utm_campaign=yelp_api_v3&utm_medium=api_v3_business_search&utm_source=xjhN_lk3nOT5MdOw5Vddqg", "review_count": 62, "categories": [{"alias": "pizza", "title": "Pizza"}, {"alias": "desserts", "title": "Desserts"}, {"alias": "salad", "title": "Salad"}], "rating": 2.5, "coordinates": {"latitude": 30.00986884830783, "longitude": -97.85681}, "transactions": ["delivery", "pickup"], "price": "$$", "location": {"address1": "5896 Kyle Pkwy", "address2": "Ste 100", "address3": null, "city": "Kyle", "zip_code": "78640", "country": "US", "state": "TX", "display_address": ["5896 Kyle Pkwy", "Ste 100", "Kyle, TX 78640"]}, "phone": "+15122627545", "display_phone": "(512) 262-7545", "distance": 22414.50224165378}, {"id": "ARBFmo7uHgXBb-X2kTu5_w", "alias": "ihop-kyle", "name": "IHOP", "image_url": "https://s3-media4.fl.yelpcdn.com/bphoto/knMWHdB2JwPbis3LmYA4cw/o.jpg", "is_closed": false, "url": "https://www.yelp.com/biz/ihop-kyle?adjust_creative=xjhN_lk3nOT5MdOw5Vddqg&utm_campaign=yelp_api_v3&utm_medium=api_v3_business_search&utm_source=xjhN_lk3nOT5MdOw5Vddqg", "review_count": 146, "categories": [{"alias": "tradamerican", "title": "American (Traditional)"}, {"alias": "breakfast_brunch", "title": "Breakfast & Brunch"}, {"alias": "burgers", "title": "Burgers"}], "rating": 2.0, "coordinates": {"latitude": 30.0109943, "longitude": -97.8627714}, "transactions": ["delivery", "pickup"], "price": "$$", "location": {"address1": "5401 Kyle Center Dr", "address2": "", "address3": "", "city": "Kyle", "zip_code": "78640", "country": "US", "state": "TX", "display_address": ["5401 Kyle Center Dr", "Kyle, TX 78640"]}, "phone": "+15122682907", "display_phone": "(512) 268-2907", "distance": 22939.876504051528}, {"id": "tL43dZEl8GYenTXxBYPHIA", "alias": "chick-fil-a-kyle", "name": "Chick-fil-A", "image_url": "https://s3-media3.fl.yelpcdn.com/bphoto/YwDQFK1Y3lSFj_QcR8jZWQ/o.jpg", "is_closed": false, "url": "https://www.yelp.com/biz/chick-fil-a-kyle?adjust_creative=xjhN_lk3nOT5MdOw5Vddqg&utm_campaign=yelp_api_v3&utm_medium=api_v3_business_search&utm_source=xjhN_lk3nOT5MdOw5Vddqg", "review_count": 111, "categories": [{"alias": "hotdogs", "title": "Fast Food"}, {"alias": "chickenshop", "title": "Chicken Shop"}, {"alias": "salad", "title": "Salad"}], "rating": 3.5, "coordinates": {"latitude": 30.0118204, "longitude": -97.8625429}, "transactions": [], "price": "$", "location": {"address1": "5289 Kyle Center Dr", "address2": "", "address3": "", "city": "Kyle", "zip_code": "78640", "country": "US", "state": "TX", "display_address": ["5289 Kyle Center Dr", "Kyle, TX 78640"]}, "phone": "+15122686741", "display_phone": "(512) 268-6741", "distance": 22980.079233362896}, {"id": "MaMIoE2rkh0deDmI7XMfIQ", "alias": "whataburger-kyle", "name": "Whataburger", "image_url": "https://s3-media2.fl.yelpcdn.com/bphoto/d9TMQ8MKeguZgO4DTDqKWQ/o.jpg", "is_closed": false, "url": "https://www.yelp.com/biz/whataburger-kyle?adjust_creative=xjhN_lk3nOT5MdOw5Vddqg&utm_campaign=yelp_api_v3&utm_medium=api_v3_business_search&utm_source=xjhN_lk3nOT5MdOw5Vddqg", "review_count": 80, "categories": [{"alias": "burgers", "title": "Burgers"}, {"alias": "hotdogs", "title": "Fast Food"}], "rating": 2.5, "coordinates": {"latitude": 30.015427771892355, "longitude": -97.86427973733268}, "transactions": ["delivery"], "price": "$", "location": {"address1": "5401 Fm 1626", "address2": "Ste 500", "address3": "", "city": "Kyle", "zip_code": "78640", "country": "US", "state": "TX", "display_address": ["5401 Fm 1626", "Ste 500", "Kyle, TX 78640"]}, "phone": "+15122684259", "display_phone": "(512) 268-4259", "distance": 23362.55443825383}, {"id": "W1_JDXFtU2rOQuNELd2tVA", "alias": "cicis-pizza-kyle-4", "name": "Cicis Pizza", "image_url": "https://s3-media3.fl.yelpcdn.com/bphoto/55XAgEfJrGxzQHF2XJC0rw/o.jpg", "is_closed": false, "url": "https://www.yelp.com/biz/cicis-pizza-kyle-4?adjust_creative=xjhN_lk3nOT5MdOw5Vddqg&utm_campaign=yelp_api_v3&utm_medium=api_v3_business_search&utm_source=xjhN_lk3nOT5MdOw5Vddqg", "review_count": 28, "categories": [{"alias": "pizza", "title": "Pizza"}], "rating": 2.5, "coordinates": {"latitude": 30.0123070669335, "longitude": -97.8582635521889}, "transactions": ["pickup", "delivery"], "price": "$", "location": {"address1": "5695 Kyle Pkwy", "address2": "Ste 400", "address3": null, "city": "Kyle", "zip_code": "78640", "country": "US", "state": "TX", "display_address": ["5695 Kyle Pkwy", "Ste 400", "Kyle, TX 78640"]}, "phone": "+15122681919", "display_phone": "(512) 268-1919", "distance": 22694.683403556308}, {"id": "tMaT0ZzIVK2uwiuiI1cGJA", "alias": "sonic-drive-in-kyle-2", "name": "Sonic Drive-In", "image_url": "https://s3-media1.fl.yelpcdn.com/bphoto/CWlVKStqPh_rPVJYpThqRw/o.jpg", "is_closed": false, "url": "https://www.yelp.com/biz/sonic-drive-in-kyle-2?adjust_creative=xjhN_lk3nOT5MdOw5Vddqg&utm_campaign=yelp_api_v3&utm_medium=api_v3_business_search&utm_source=xjhN_lk3nOT5MdOw5Vddqg", "review_count": 59, "categories": [{"alias": "hotdogs", "title": "Fast Food"}, {"alias": "burgers", "title": "Burgers"}, {"alias": "icecream", "title": "Ice Cream & Frozen Yogurt"}], "rating": 2.0, "coordinates": {"latitude": 29.981733, "longitude": -97.870693}, "transactions": ["delivery", "pickup"], "location": {"address1": "400 Fm 150 E", "address2": "", "address3": null, "city": "Kyle", "zip_code": "78640", "country": "US", "state": "TX", "display_address": ["400 Fm 150 E", "Kyle, TX 78640"]}, "phone": "+15122621022", "display_phone": "(512) 262-1022", "distance": 21721.105178462883}, {"id": "7zRhI9QZ72z09v_WZAOMEw", "alias": "hardihoods-eatery-and-drinkery-evo-kyle", "name": "Hardihoods Eatery & Drinkery @ EVO", "image_url": "https://s3-media2.fl.yelpcdn.com/bphoto/ndILEvXKsV9WsnQOeevuKA/o.jpg", "is_closed": false, "url": "https://www.yelp.com/biz/hardihoods-eatery-and-drinkery-evo-kyle?adjust_creative=xjhN_lk3nOT5MdOw5Vddqg&utm_campaign=yelp_api_v3&utm_medium=api_v3_business_search&utm_source=xjhN_lk3nOT5MdOw5Vddqg", "review_count": 14, "categories": [{"alias": "newamerican", "title": "American (New)"}, {"alias": "arcades", "title": "Arcades"}, {"alias": "pubs", "title": "Pubs"}], "rating": 2.5, "coordinates": {"latitude": 30.0301848, "longitude": -97.8538209}, "transactions": [], "location": {"address1": "3200 Kyle Crossing", "address2": "", "address3": "", "city": "Kyle", "zip_code": "78640", "country": "US", "state": "TX", "display_address": ["3200 Kyle Crossing", "Kyle, TX 78640"]}, "phone": "+15125239009", "display_phone": "(512) 523-9009", "distance": 23642.95978083644}, {"id": "xM9mCSBSk-0-YaT0tszrpQ", "alias": "kfc-kyle-2", "name": "KFC", "image_url": "https://s3-media2.fl.yelpcdn.com/bphoto/kmJfMKnjL3ZZ1pWYDrl12g/o.jpg", "is_closed": false, "url": "https://www.yelp.com/biz/kfc-kyle-2?adjust_creative=xjhN_lk3nOT5MdOw5Vddqg&utm_campaign=yelp_api_v3&utm_medium=api_v3_business_search&utm_source=xjhN_lk3nOT5MdOw5Vddqg", "review_count": 20, "categories": [{"alias": "hotdogs", "title": "Fast Food"}, {"alias": "chicken_wings", "title": "Chicken Wings"}, {"alias": "chickenshop", "title": "Chicken Shop"}], "rating": 1.5, "coordinates": {"latitude": 30.00958085956445, "longitude": -97.86135364475729}, "transactions": ["delivery", "pickup"], "price": "$", "location": {"address1": "20925 Interstate Hwy 35", "address2": null, "address3": null, "city": "Kyle", "zip_code": "78640", "country": "US", "state": "TX", "display_address": ["20925 Interstate Hwy 35", "Kyle, TX 78640"]}, "phone": "+15122686316", "display_phone": "(512) 268-6316", "distance": 22735.198309513406}, {"id": "SAb1ZXYMY7-HM3l3wgX9jg", "alias": "wendys-kyle-2", "name": "Wendy's", "image_url": "https://s3-media1.fl.yelpcdn.com/bphoto/Qu_WP2pCcShMgNqPnBY7Cg/o.jpg", "is_closed": false, "url": "https://www.yelp.com/biz/wendys-kyle-2?adjust_creative=xjhN_lk3nOT5MdOw5Vddqg&utm_campaign=yelp_api_v3&utm_medium=api_v3_business_search&utm_source=xjhN_lk3nOT5MdOw5Vddqg", "review_count": 16, "categories": [{"alias": "burgers", "title": "Burgers"}, {"alias": "hotdogs", "title": "Fast Food"}], "rating": 2.0, "coordinates": {"latitude": 30.012156003329803, "longitude": -97.85999225767111}, "transactions": ["delivery"], "location": {"address1": "20584 Ih 35", "address2": null, "address3": null, "city": "Kyle", "zip_code": "78640", "country": "US", "state": "TX", "display_address": ["20584 Ih 35", "Kyle, TX 78640"]}, "phone": "+15125963319", "display_phone": "(512) 596-3319", "distance": 22812.691523453253}, {"id": "XSTpqsFOkWe7nBFCgpiL2g", "alias": "popeyes-louisiana-kitchen-kyle-2", "name": "Popeyes Louisiana Kitchen", "image_url": "https://s3-media1.fl.yelpcdn.com/bphoto/XOPV4ECw-DDwYvChGiQ_Vw/o.jpg", "is_closed": false, "url": "https://www.yelp.com/biz/popeyes-louisiana-kitchen-kyle-2?adjust_creative=xjhN_lk3nOT5MdOw5Vddqg&utm_campaign=yelp_api_v3&utm_medium=api_v3_business_search&utm_source=xjhN_lk3nOT5MdOw5Vddqg", "review_count": 106, "categories": [{"alias": "hotdogs", "title": "Fast Food"}, {"alias": "chicken_wings", "title": "Chicken Wings"}], "rating": 1.5, "coordinates": {"latitude": 30.011973, "longitude": -97.860128}, "transactions": ["delivery", "pickup"], "price": "$", "location": {"address1": "20259 IH 35", "address2": "", "address3": "", "city": "Kyle", "zip_code": "78640", "country": "US", "state": "TX", "display_address": ["20259 IH 35", "Kyle, TX 78640"]}, "phone": "+15122681210", "display_phone": "(512) 268-1210", "distance": 22809.960323487634}, {"id": "6zuozyVB73h_5qoklBK8tA", "alias": "mcdonalds-kyle", "name": "McDonald's", "image_url": "https://s3-media1.fl.yelpcdn.com/bphoto/ae53J01EHaH8r-E3nDO7qg/o.jpg", "is_closed": false, "url": "https://www.yelp.com/biz/mcdonalds-kyle?adjust_creative=xjhN_lk3nOT5MdOw5Vddqg&utm_campaign=yelp_api_v3&utm_medium=api_v3_business_search&utm_source=xjhN_lk3nOT5MdOw5Vddqg", "review_count": 65, "categories": [{"alias": "hotdogs", "title": "Fast Food"}, {"alias": "burgers", "title": "Burgers"}, {"alias": "coffee", "title": "Coffee & Tea"}], "rating": 1.5, "coordinates": {"latitude": 30.011287, "longitude": -97.862819}, "transactions": ["delivery"], "price": "$", "location": {"address1": "5325 Kyle Center Dr", "address2": null, "address3": null, "city": "Kyle", "zip_code": "78640", "country": "US", "state": "TX", "display_address": ["5325 Kyle Center Dr", "Kyle, TX 78640"]}, "phone": "+15122681121", "display_phone": "(512) 268-1121", "distance": 22963.75617410628}]